Park Name,Longitude,Latitude
LABRADOR NATURE RESERVE,103.8020372193653,1.267356204279249
BUKIT TIMAH NATURE RESERVE,103.77909858021013,1.3540594774834185
UPPER SELETAR RESERVOIR PARK,103.80744001762055,1.4012617805861975
UPPER PEIRCE RESERVOIR PARK,103.8118660984769,1.372790931891346
THOMSON NATURE PARK,103.82203885112,1.3826408205973073
WINDSOR NATURE PARK,103.82125945835783,1.3568152417612294
CHESTNUT NATURE PARK,103.7794380914777,1.3768728987521912
RIFLE RANGE NATURE PARK,103.78405998387908,1.3471603920567965
LOWER PEIRCE RESERVOIR PARK,103.82649974881977,1.3692147195643873
ZHENGHUA NATURE PARK,103.77835108165955,1.3678343883470532
BUKIT BATOK TOWN PARK,103.75607205285507,1.357354333611622
BUKIT BATOK NATURE PARK,103.76462219368499,1.3500086942926157
LABRADOR NATURE PARK,103.80339748868586,1.2643669344593973
SPRINGLEAF NATURE PARK,103.8202989368223,1.4018864563587008
CENTRAL CATCHMENT NATURE RESERVE,103.8056173588953,1.380770971767438
PULAU SEKUDU,103.98804174981142,1.403917815667064
PULAU UNUM,104.05378181778914,1.4330328632249225
BETING BRONOK,104.04685703680678,1.4370477517511775
DAIRY FARM NATURE PARK,103.77355529295431,1.3626384775863845
SUNGEI BULOH WETLAND RESERVE,103.72452299950963,1.4447381191632054
KRANJI COASTAL NATURE PARK,103.73491029435843,1.443494442808356
KRANJI RESERVOIR PARK B,103.73782912907258,1.439647254559817
KRANJI MARSHES,103.73022739619705,1.4191552027465542
SUNGEI BULOH SOUTHERN EXTENSION,103.71979436257163,1.4362850593518035
KRANJI RESERVOIR PARK A,103.74293952628184,1.4382098785134965
BERLAYER CREEK,103.80514529311107,1.2677204017234178
PULAU UBIN AND CHEK JAWA,103.96541181276811,1.4137521320857342
RAILWAY CORRIDOR RIFLE RANGE CONNECTOR,103.77932119660633,1.3413819155173663
HINDHEDE NATURE PARK,103.77603671278706,1.350243689746012
RAIL CORRIDOR,103.7535615435598,1.4034046970832672
BUKIT CHERMIN BOARDWALK,103.80741828570511,1.2652889536400571
MACRITCHIE RESERVOIR PK,103.83628135800585,1.343450909087146
KALLANG LINEAR PARK,103.855695269338,1.350448945955822
OLD UPPER ALJUNIED ROAD,103.87522010900422,1.338695399595206
ARMENIAN STREET (FCP),103.8495024035567,1.294482568247657
CONNAUGHT DRIVE,103.85327993307943,1.2898550095739831
CANNING RISE (FCP),103.84788253737088,1.2964151858156534
CAMP ROAD INTERIM PARK,103.81847352134145,1.3024565695099892
CHANGI WEST BOARDWALK (CHANGI BC),103.9759334480344,1.390214721802019
CHANGI PT FERRY TERMINAL,103.98731252320438,1.3912069094980077
TANAH MERAH PG,103.94687554887881,1.3290293360905583
MARIAM WALK PG,103.96854744421532,1.3595473597296697
LOYANG VIEW PG,103.96563729241967,1.3630395003067224
JLN LIMAU MANIS PG,103.94904499138299,1.324734002766244
JLN ANGIN LAUT PG,103.95622497877842,1.3371839888180481
MERA TERRACE PG,103.96350603982197,1.347404439021593
EASTWOOD PK PG,103.95756375074507,1.323160024115253
JLN CHEMPAKA KUNING PG,103.95016432778705,1.3297574948727167
JLN PARI BURONG PG,103.94696150148619,1.3338302667621265
JLN PARI DEDAP PG,103.9438804788435,1.3330205537387907
JLN PELATOK PG,103.9603400330171,1.3461443277769334
MERAGI RD PG,103.96028263817686,1.3443834054676365
SUNBIRD CIRCLE PG,103.95824012802514,1.3390909036288612
PESARI WALK PG,103.9539785936791,1.32442963788354
BEDOK RIA CRESCENT PG,103.95308237796718,1.3274173484689635
HARVEY CRESCENT PG,103.95519192385743,1.340659028078158
MARIAM WAY PG,103.96623348811329,1.3619451550131056
BEDOK TERRACE PG,103.94750561924357,1.3255436014309503
KEW DR PG,103.95175430405384,1.3207095314104476
LIMAU GARDEN PG,103.95069132925602,1.3224821249750645
LUCKY GARDENS PG,103.94137612219359,1.3192870715386174
SENNETT AVE PG,103.93628016907121,1.3169670574437697
JLN LIMAU KASTURI PG,103.94638906084539,1.3239737649827956
KEW AVE PG,103.94845050181046,1.3216265387648582
KEW CRESCENT PG,103.94858574719049,1.3191875527603303
LIMAU VILLAS PG,103.95051409597892,1.323872450926419
CHANGI HEIGHTS PG,103.97220437477233,1.3628436477636612
TURNHOUSE PK,103.97897923032566,1.3899035701307045
SENNETT AVE OS,103.93933426138598,1.3187872216619958
JLN LIMAU KASTURI OS,103.94622771976445,1.3244942567211289
JLN PELATOK OS,103.96085682394701,1.3461745741609257
CHANGI EAST BOARDWALK (CHANGI FERRY TER),103.98418177001933,1.3922188152832382
CHANGI POINT PROMENADE,103.98911988020669,1.390205184340595
CHANGI POINT WATERFRONT PK,103.98826627962663,1.390432538379985
EAST COAST PARK AREA A,103.8695862425583,1.2940495430765617
EAST COAST PARK AREA B,103.9001313600413,1.2964678008886765
EAST COAST PARK AREA C,103.9124608129566,1.3003516412785827
EAST COAST PARK AREA D,103.92522216230093,1.3042740200267717
EAST COAST PARK AREA E,103.93262756176311,1.3070449786398985
EAST COAST PARK AREA F,103.93960025910638,1.3094728613979874
EAST COAST PARK AREA G,103.95838226458031,1.3136017962337767
EAST COAST PARK AREA H,103.96739962650977,1.3156703807949146
BEDOK TOWN PK,103.92387217567484,1.3349549871052688
BEDOK RESERVOIR PK,103.92681170207061,1.3459933259139159
YARROW PARK,103.92150194857041,1.3154230233745818
SIGLAP LINEAR PK (UPP EC RD-M PARADE),103.92840651937104,1.3112841044746675
TANJONG KATONG RD SOUTH PG,103.89732193154623,1.3001741105275457
JLN BULOH PERINDU PG,103.9193844827303,1.308482597500017
MEYER RD PG,103.89419707868944,1.298568516607628
EAST COAST TERRACE PK,103.92380556094116,1.310960090654787
TELOK KURAU PK,103.91428584740629,1.315364761626945
ELITE TERRACE PK,103.92430631411794,1.3155988452075453
SIGLAP LINEAR PK (JLN B'WAN-UPP EC RD),103.92740863602118,1.3143798428279883
GEYLANG EAST PK,103.88765907111089,1.3217717845216927
GREENFIELD DR PG,103.91765634990739,1.313035476842194
BANGSAWAN PK,103.92383794558941,1.3212075676318946
AIDA PK,103.92792692780097,1.319379621733533
JLN SENANG PG,103.91556908211406,1.3290153443376747
OPERA ESTATE FOOTBALL FIELD,103.92445612755219,1.3201011447755768
CARPMAEL PARK,103.89895133769063,1.3115022361545772
TAMAN KEMBANGAN PG,103.91440219019876,1.325003304751308
WARINGIN PK PG,103.91917852870084,1.3230230142980837
ARTHUR PK,103.88821400899496,1.30388822881068
LORONG 40 GEYLANG PG,103.88936940225831,1.313633000793319
GUILLEMARD RD OS,103.89239730438597,1.3145512726897666
INTERIM PK AT TERANG BULAN AVE,103.9215767962677,1.3216332972410234
MT BATTEN RD/OLD AIRPORT RD OS,103.88330755751575,1.30574055045791
KATONG PK,103.88634784301111,1.2971665037074374
MARINE PARADE RD PK,103.90802872780476,1.3048983342903429
WILKINSON INTERIM PK,103.88731326519634,1.3016518077516772
HAIG WALK (GEYLANG RD-DUNMAN RD),103.90074024162854,1.306519322047545
JOO CHIAT TERRACE PK,103.90169892988682,1.3144083767581638
LORONG SARINA INTERIM PK,103.90608246484213,1.320143721936378
JLN ISMAIL PK,103.9058590154343,1.323199026136176
PASIR RIS PK,103.95217308419335,1.378684204466107
PASIR RIS TOWN PK,103.95240633384716,1.3716892154609006
SUN PLAZA PK,103.94344045133047,1.358555426020648
SG API API PK,103.94600303665655,1.378883969790186
ELIAS TERRACE PG,103.94108425200558,1.3722284299777547
HORTPARK,103.79805321601928,1.2790779706631137
PASIR PANJANG NURSERY,103.79387132126212,1.281589774272301
NATIVE PLANT CENTRE,103.72747774076977,1.4172750323139833
PEK KIO PARK,103.84921504660437,1.3160787636454023
ANG MO KIO TOWN GARDEN EAST,103.85028589165374,1.3705710218874325
ANG MO KIO TOWN GARDEN WEST,103.8427395942111,1.3745094714262072
BISHAN-ANG MO KIO PARK (POND GARDENS),103.83640855422084,1.365206898591455
BISHAN-ANG MO KIO PARK (RIVER PLAINS),103.84886679994811,1.3605206612391523
CHUAN GREEN PG,103.86600839566016,1.3604796821887382
ST. NICHOLAS VIEW PLAYGROUND,103.83278502528951,1.3716264409438859
ELLINGTON SQUARE PLAYGROUND,103.83453036042759,1.372002308967111
GELENGGANG PARK,103.82983449183553,1.3734758941034848
LEBAN PARK,103.82929233400442,1.3724595958171455
MAYFLOWER CRESCENT PG,103.83952885224147,1.3727323067423005
SERENADE WALK PG,103.83455966687733,1.3799210099648818
SHANGRI-LA PLAYGROUND,103.83239200313676,1.3710206044793614
SUNRISE CLOSE PG,103.85750994675662,1.3870117216117048
SUNRISE DR PG I,103.85736958326423,1.3883057124857408
SUNRISE PLACE PG,103.85660014074122,1.3869426039108539
SUNRISE WAY PG,103.85668008439829,1.3876742987723807
TEACHER`S ESTATE PG,103.82919950234891,1.3819922656658334
THOMSON GREEN PG,103.83262325345856,1.3786921826899312
THOMSON WALK PG,103.83248564324285,1.3760005695093724
YIO CHU KANG GARDENS PG,103.83748739794767,1.3806810614421143
SUNRISE TERRACE OS,103.85611706221468,1.3882473907685913
CACTUS RD PG,103.8522364751832,1.3901090514350167
SUNRISE DR PG II,103.85525165964455,1.3903014178121826
CHARTWELL DR PK,103.86387162020543,1.359630704066999
GARDEN VIEW PG,103.8656694375827,1.360424882312599
JLN RIANG PG,103.86739535755741,1.347142606318519
MEI HWAN CRESCENT PG,103.8617432585592,1.3527669553311927
MEI HWAN DR PG,103.86347279914047,1.3533500946535582
TAI HWAN TERRACE PG,103.8603394027534,1.356445511239319
TAVISTOCK AVE PK,103.86535828554187,1.3702072455001193
CHUAN WALK PG,103.86755286023556,1.3572217609344281
COLCHESTER GROVE OS,103.86745449486286,1.35758477322631
BINCHANG RISE PG,103.84354841240868,1.3486736465484725
THOMSON PK,103.83436394111058,1.354291095873925
CLOVER WAY PG,103.84602143139854,1.35017711807616
FULTON AVE PG,103.83352102521286,1.3621074576917207
ISLAND GDNS WALK PG,103.82843911048238,1.3619988729063952
JLN PINTAU PG,103.83997321893165,1.3539456694819354
JUPITER PLAYGROUND,103.8251367708756,1.3582711671757906
PEMIMPIN PLACE PG,103.8427195604123,1.353369937451072
SOO CHOW WALK PG,103.83202835279195,1.3536471358303632
CLOVER CRESCENT PG,103.84457614791424,1.351048150254165
THE INGLEWOOD PG,103.8300516835762,1.3610744597440587
CARMICHAEL RD PG,103.86300718141766,1.3426814392416841
TAMAN PERMATA PK,103.83498979568337,1.3500656010895002
CHUAN LANE PARK,103.85808296065588,1.3517560673798326
PUNGGOL PK,103.89864411031115,1.376937578338443
CONEY ISLAND PARK,103.92150970647593,1.4094585525108143
ALJUNIED PK,103.87996253232025,1.3291384360598753
SURIN AVE NEIGHBOURHOOD PK,103.88408561767399,1.35557644498448
TAI KENG GARDENS PG,103.88505458283811,1.3461705316929746
PAYA LEBAR CRESCENT OS,103.8835687297887,1.3489666098728343
THRIFT DR OS,103.88324732394916,1.3438865600041416
AROOZOO AVE PG,103.88595627294951,1.3551968667416656
TAI KENG PLACE PG,103.88484078064656,1.345041324620566
JLN KELICHAP PG,103.88182461306774,1.346782057161644
JLN SELASEH PG,103.87338201184058,1.3856016503500974
LILAC DR PG,103.86114379728288,1.381151158087855
MIMOSA RD PG,103.86304382230897,1.3841919506036497
MIMOSA WALK PG,103.8614600654721,1.3831048213251267
MUGLISTON PK PG,103.87790631675026,1.3854458918398724
NERAM CRESCENT PG,103.86574410141814,1.3855886003480908
TAMARIND RD PG,103.86020178045604,1.3896991865137867
NIM CRESCENT OS,103.86684092302163,1.3830798457367532
BEGONIA RD PG,103.8632895690186,1.387819699835976
JLN NAUNG PG,103.89282189717285,1.3695631217362907
PARRY RD PG,103.87750439954596,1.3660287545609888
SARACA RD PG,103.8586374762825,1.3866687658523218
DEDAP PLACE PG,103.86841336325828,1.3877975742272126
POH HUAT RD PG,103.88161112353755,1.3669371159298906
STRATTON WALK PG,103.86696717182308,1.3792369849722972
SELETAR TERRACE PG,103.86877440484598,1.381482754028751
ST ANNE'S WOOD PG,103.90373614980619,1.3916400676753395
PK VILLAS TERRACE PG,103.87996361274367,1.368992827751172
MIMOSA TERRACE PG,103.86044968677317,1.3840503584654404
DEW GARDEN,103.87106539900101,1.3992663452473966
PARRY AVE INTERIM PK,103.8811344873211,1.3639250471555793
RICHARDS AVE PK,103.8821291218715,1.3609285905492048
BUTTERFLY AVE PG,103.87733653681293,1.3344335664826814
CHEMPAKA AVE PG,103.87561556762392,1.3318740875843238
JLN GENENG INTERIM PK,103.8808747649801,1.35333766953297
SENGKANG RIVERSIDE PK,103.88432517223448,1.399448212789253
OASIS@MULBERRY PK,103.87843597247893,1.3328961389324478
SIANG KUANG AVE INTERIM PK,103.87304948216776,1.3298283697306559
LORONG TANGGAM PK,103.87375495285376,1.3989789258957948
UPPER PAYA LEBAR INTERIM PARK,103.88246411823552,1.3435839278077555
NIM MEADOW PARK,103.86340432365587,1.378616619290899
GREENWAY SOUTH,103.87206082493839,1.3351785173598223
FERNVALE PARK,103.87487871240788,1.397514524959929
SEMBAWANG PK,103.83684542660218,1.461502967101001
YISHUN PK,103.84260969126039,1.4243757202836804
LOWER SELETAR RESERVOIR PARK,103.82889324908156,1.4074398977574718
LENTOR WALK PG,103.83838324853672,1.388630957046075
COUNTRYSIDE PG,103.83840795464988,1.390187591950226
LENTOR STREET PG,103.83427652569794,1.3900981863835726
FLORISSA PK PG,103.83507298158987,1.3869730932271511
FUDU WALK PG,103.83723438334813,1.3898351218920812
LENTOR GREEN PG,103.83705647129632,1.3852857282719149
LENTOR GROVE PG,103.83837072390618,1.3863846910693212
LENTOR RD PG,103.8375722009472,1.3882919034888321
LENTOR VALE PG,103.8361460821369,1.388054236018028
BANYAN VILLAS PG,103.83885324901108,1.3872785047323783
YISHUN NEIGHBOURHOOD PK,103.83505796157499,1.4377572398692902
PLATINA RD PG,103.82611872435531,1.427545345731652
GOODLINK PK PG,103.82539258443619,1.4272996068699648
SPRINGLEAF GARDEN PG,103.82232177612995,1.3980392651067637
THONG SOON GREEN PG,103.81838893422373,1.4000547089156712
SPRINGLEAF AVE PG,103.82259766879525,1.4009038349808505
KANDIS GARDEN,103.83564474294631,1.4561915535787118
JANGGUS GARDEN,103.836983849514,1.4575398277036695
PEBBLE GARDEN,103.82949312449735,1.4506449229179543
SPRINGSIDE PK,103.82060743654343,1.40567189969779
YISHUN POND PK,103.83948703941307,1.4280122121941303
MARSILING PARK,103.76993442393145,1.4376329309110691
CHOA CHU KANG PK,103.74719419176785,1.3868788943203836
WOODLANDS TOWN PK EAST,103.77932336433604,1.4366664600205694
CASHEW RD PG,103.76466780670853,1.370599819099977
CHESTNUT DR PG,103.76882971645354,1.3676337346860437
CASHEW LINK PG,103.76892501358682,1.3713588873705078
JLN RASOK PK,103.75903191338021,1.4165006473670392
ALMOND CRESCENT PG,103.77198060528261,1.373212444460707
HAZEL PK OS,103.76364488514353,1.37163460470999
VILLA VERDE PK,103.75295144222655,1.3904215007174316
ADMIRALTY PK,103.78004641287625,1.4503318491150956
CASHEW CRESCENT FC PG,103.76949467203684,1.372244853589548
MARKET STREET PARK,103.85025257913112,1.2834502283705302
HAMPSTEAD WETLANDS PARK,103.86927945315952,1.4091868197905
YOUTH OLYMPIC PK,103.86063943635142,1.2890334954405513
MACPHERSON LINEAR PK,103.88170606628692,1.3337984538293288
CORONATION PARK,103.79640044992216,1.3220260236043055
HOLLAND VILLAGE PK,103.79554394732374,1.3117302451456774
BUNGA RAMPAI PK,103.88429612227287,1.3404755199680845
JALAN SEMBILANG PARK,103.83403585965391,1.3565655208983551
BIDADARI PK,103.87432584718341,1.3406917048981004
ST MICHAEL'S PG,103.8648876663764,1.3262280949094876
ST MICHAEL'S FC,103.86510904659654,1.326495585887167
CAMBRIDGE PARK,103.8468378224805,1.3136609018175494
KHEAM HOCK PARK,103.81920708492935,1.3304435596940567
CEYLON ROAD INTERIM PARK,103.89959814941292,1.309780416441062
HAIG WALK EXTENSION,103.89867693205032,1.3106817056633298
ONAN ROAD GREEN SPACE,103.90071942071468,1.310097065723525
TRAS LINK PK,103.84379019866222,1.2764576104339909
VENUS GREEN,103.82726623397681,1.3586716314676621
GREEN LANE PARK,103.89248426858595,1.310798045128343
MAR THOMA ROAD PARK,103.86202838719863,1.3273571946342186
SIAN TUAN INTERIM PARK,103.78618858002517,1.338593568895342
LORONG ONG LYE PARK,103.87869663058362,1.3477598168274654
KOON SENG PARK,103.90283322069531,1.311044866160587
HOW SUN LINEAR PARK,103.87813597290207,1.345891826878166
TAMPINES ECO GREEN PK,103.94837674998735,1.3637104850934065
LENGKONG ENAM PARK,103.91473692531704,1.327364090817036
JALAN SENANG LINEAR PARK,103.91718424983641,1.3255723945320617
TANAH PUTEH PK,103.93135824060478,1.3158268685002996
TELOK KURAU LORONG N PK,103.91280540959376,1.3103250756376554
JLN DAUD PK,103.90710085142925,1.3258268500339527
JLN DAUD INTERIM PK,103.90653362722021,1.3255910007377705
JLN EUNOS INTERIM PK,103.90600138050888,1.3249340929151467
JLN AWANG INTERIM PK,103.90586782493945,1.323882729509606
JLN YASIN INTERIM PK,103.90555486606854,1.3213610329678636
SENNETT AVE LINEAR PK,103.93596368818606,1.317581114211267
JALAN ISHAK PARK,103.90719783457328,1.324143795221918
LORONG MARICAN PARK,103.90793148364665,1.3238874167098094
LORONG MARZUKI PARK,103.90833923340004,1.3237972700036256
LORONG MELAYU PARK,103.90932502642963,1.3239981939644312
JALAN SINGA PARK,103.9069388354374,1.3309719001814444
SEA BREEZE AVENUE PARK,103.95218941847628,1.3386583856793284
SEA BREEZE GARDEN PARK,103.95042164618069,1.3378659285546979
JLN KAYU PK,103.87288129000338,1.3981028673361924
PUNGGOL WATERWAY PK,103.90481505251175,1.4109972133070596
CHILTERN DRIVE INTERIM PARK,103.86200639142878,1.3485590553796722
LUXUS HILLS PARK,103.87500619211161,1.3794966735254204
COLCHESTER GROVE INTERIM OS,103.86674253718547,1.3564831011967846
ANG MO KIO LINEAR PK (PLOT 2),103.87176018975933,1.37933423418482
ANG MO KIO LINEAR PK (PLOT 3),103.86871835024394,1.3791914029869319
JLN KAYU INTERIM PK,103.87253565687772,1.3987879613464556
REALTY PARK,103.89011876921555,1.3682274567821835
PAYA LEBAR ROAD PARK,103.88858043913332,1.3328488352836065
WOODLANDS WATERFRONT PK,103.78131812725178,1.4533560651448352
KEMUNING PK,103.82708060222011,1.4393255722864347
LEGUNDI PK,103.82207014723265,1.4411560592577497
BROOK'S PARK,103.82297934779446,1.4056081881963591
HAUS LINEAR PARK,103.86001282197255,1.364469664935699
SEMBAWANG HOT SPRING PARK,103.82264581250642,1.4343322631927482
IRAU DRIVE PLAYGROUND,103.84006882882944,1.461943538497985
UPPER SERANGOON PARK,103.87522575970935,1.3516374385511811
LORONG KEMUNCHUP PLAYGROUND,103.76093338574456,1.3603930473435468
JALAN REMAJA INTERIM PARK,103.760776014894,1.3575783238033021
FUYONG INTERIM PK,103.7687509521143,1.3574541615680369
CHESTNUT CLOSE PARK,103.7733007053261,1.3689466349411357
PAVILION PLAYGROUND II,103.75343447476291,1.3683404220725546
CASHEW RD INTERIM PK,103.76796711460399,1.3724045480241602
FABER HEIGHTS PARK,103.75526367638578,1.3238384183511829
JLG: CG MRT TOL LINKWAY,103.73200024650436,1.341095115528266
SBG LC ZONE 1 (TNC),103.81562486238036,1.3100244521730628
SBG LC ZONE 2 (CC/BTC),103.8169579771443,1.3210034671809083
SBG LC ZONE 3 (NOG/PV),103.8140609121386,1.3129062754466734
SBG LC ARBO/PRC/PRU ,103.81789598168726,1.3218387235806648
FORT CANNING PARK,103.846609328737,1.295890735426131
THE FOOTHILLS FORT CANNING PK,103.8456906573111,1.2922576144953883
FARQUHAR GARDEN (FCP),103.84867152086326,1.2956865226548384
EMPRESS PLACE,103.85213965205668,1.2869615844084001
ESPLANADE PK,103.85359672385975,1.289417085574277
DUXTON PLAIN PK,103.84141929284567,1.2811223325176546
PEARL'S HILL CITY PK,103.83872911197332,1.2845131482934613
RAFFLES PLACE PK,103.8514999268154,1.2835942597630638
TELOK AYER PK,103.84668683482796,1.2781775055205808
WATERBOAT HOUSE GARDEN,103.85347304115898,1.2873195163410733
TANJONG PAGAR PK,103.84577413154086,1.2765778585703167
TELOK AYER GREEN,103.84764373601121,1.2814651634440863
ANN SIANG HILL PK,103.84611877493366,1.2810620002557065
HONG LIM PK,103.84705068432152,1.2863319638689366
TOA PAYOH TOWN PK,103.84795477931803,1.3305698250739586
KALLANG RIVERSIDE PK,103.86882040608397,1.3077192983528685
TIONG BAHRU PK,103.82402678837296,1.2876172817355604
THOMSON RD PG,103.84370946452388,1.3162599542348774
MALCOLM PK,103.82651847332639,1.3225629270112642
KAMPONG GLAM PK,103.86299607104655,1.3024454354320096
HOOPER RD PG,103.84320423199813,1.3123989150672273
ROWELL RD OS,103.85484861991678,1.3084223021898134
SOMME RD PG,103.85815199975507,1.3114841047156247
BENG WAN RD PG,103.86583529863027,1.3238060154419715
NORTH BRIDGE GARDEN,103.86214555169653,1.3041093226010843
GOLDHILL AVE PG,103.83317379982168,1.3211334171756735
GENTLE DR PG,103.84070309190496,1.3203688056669944
NOVENA PK,103.84281346247634,1.3223128035080336
MOUNT EMILY PK,103.84761124346433,1.3043760852680015
PENANG RD OS,103.8414938192375,1.3002353872402603
JUBILEE PARK (FCP),103.84484592748184,1.293374207908301
ORCHARD FOUNTAIN CORNER,103.83761070678618,1.3015871256010152
ISTANA PK,103.8439884144354,1.2992640005702025
WAR MEMORIAL PK,103.85481847201595,1.2928245131605016
KIM SENG PK,103.8342551228348,1.2926204540505026
NOVENA RISE PK,103.84285301661774,1.324627530026666
DHOBY GHAUT GREEN,103.84584933421796,1.2984301269505807
HANDY RD OS,103.84780697048458,1.2990570546594116
BOUGAINVILLEA PK,103.80762186035389,1.3267341485452966
UNIVERSITY RD PK,103.81767447386102,1.3254507127857538
GREENWOOD CRESCENT PG,103.80548695379504,1.3355062363588595
ORCHID VILLAGE PG,103.80171316653193,1.335704021942395
SHELFORD RD PG,103.81043241139626,1.328370121120348
WATTEN HEIGHTS PG,103.80818355774429,1.3315101656988075
NAMLY PK,103.79658146709734,1.3232989310291234
SIXTH AVE PG,103.79128056190346,1.3224359361605311
KING'S DR PG,103.80606154202394,1.319086675112928
SUNSET WAY PK,103.76477924872367,1.3276945793169321
SUNSET WAY PG,103.76640642909675,1.3267878202224332
SUNSET HEIGHTS OS,103.76886836516977,1.327945008025658
CLEMENTI CRESCENT PG,103.77329951691915,1.3235224958162637
HUA GUAN CRESCENT PG,103.7850595398033,1.3370105386444795
GREENLEAF VIEW PK PG,103.78807923436081,1.3223225608427498
GROVE LANE PG,103.7842062105903,1.3137632887413677
JLN KEBAYA PG,103.78024635822102,1.3141149108976589
MOUNT SINAI PLAIN PG,103.78109728549767,1.3157210166715099
HOLLAND GROVE VIEW FC,103.78278534837222,1.3124745780961788
HOLLAND GROVE VIEW PG,103.78122162363572,1.3129296671523445
HOLLAND GREEN PG,103.78257759536767,1.3268109004608926
MAYFAIR PK,103.78089287498761,1.3415555200005544
HENRY PK,103.78311800015676,1.3162571773594276
PHOENIX PARK,103.75723986270971,1.3758898083445705
CHENG SOON GARDEN PG,103.77168301094926,1.3358863606370819
CHU YEN PLAYGROUND,103.75897633995594,1.358697170052659
ENG KONG GARDEN PG,103.76916336188069,1.3369237422732272
ENG KONG PLACE FC,103.76724604913917,1.334739202719321
GOLDEN RISE PG,103.76486852005382,1.336323647928762
GREENRIDGE CRESCENT PG,103.76576322902989,1.3342797127441772
JALAN DERMAWAN PLAYGROUND,103.75860584483674,1.3606389456498547
JALAN TEKUKOR PLAYGROUND,103.76677601808633,1.3461378955794994
HOOVER PARK (LOR PISANG HIJAU PLAYGROUND),103.77302025529794,1.34387550950276
HIGHGATE WALK PLAYGROUND,103.76592436149276,1.340417184614863
SAVOY PK PG,103.76992667231652,1.3334144853864318
HILLVIEW CRESCENT PLAYGROUND,103.76116232991829,1.355262346001316
BURGUNDY CRESCENT PLAYGROUND,103.7609050344812,1.3398270199089037
PAVILION PARK PLAYGROUND,103.75197729239298,1.372285673351409
DUCHESS PK,103.80547941573253,1.3242903125405507
VICTORIA PARK PLAYGROUND,103.8018099364379,1.3219027993967765
MAPLE LANE PARK,103.79259115095014,1.3299945741675625
HOLLAND GREEN LINEAR PARK,103.78401697245168,1.3271228350438102
WEST COAST PARK,103.76283334042782,1.2974744660733224
CLEMENTI WOODS PARK,103.76761685803038,1.2989335350094564
YUNNAN PARK,103.6929015341445,1.3374845229132715
LAKESIDE GROVE PLAYGROUND,103.71859444158254,1.3400730144096729
WESTWOOD PARK PLAYGROUND,103.70105312473154,1.35180264784881
WESTVILLE PLAYGROUND,103.69953571293017,1.353602235401215
LAKESIDE GROVE FITNESS CORNER,103.71705725432878,1.3397230462758167
JALAN MAS KUNING PLAYGROUND,103.76352509593494,1.307851607722101
JALAN MAS PUTEH PLAYGROUND,103.76200681668604,1.3089863435762052
PANDAN RESERVOIR FITNESS CORNER,103.748747848672,1.3174990770561843
TAMAN MAS MERAH PLAYGROUND,103.76472555154503,1.308703286123271
WEST COAST GREEN PLAYGROUND,103.75636016964519,1.3155603512098706
WEST COAST PLACE PLAYGROUND,103.7584501679103,1.3142539349187183
FABER HILLS PLAYGROUND,103.75797647582053,1.3197672502536721
FABER HEIGHTS OPEN SPACE,103.7576085677288,1.3225526398909135
JURONG CENTRAL PARK,103.70787455681167,1.3379796517930498
PASIR PANJANG PARK,103.78392469711306,1.278746579452599
KENT RIDGE PARK,103.79031876843679,1.2843923645236939
JAMBOL PLACE PARK,103.79018535239055,1.2790257618919407
CHWEE CHIAN PLAYGROUND,103.78895401879323,1.279572837078235
ONE-NORTH PARK,103.79036831078187,1.3042782782065543
MOUNT FABER PARK,103.81933003105215,1.2705515087384658
TELOK BLANGAH HILL PARK,103.81025373344491,1.2786594119326866
GANGES AVE OS,103.83179846135349,1.290793230671245
KIM PONG PARK,103.82973723189947,1.283590396304199
BUKIT GOMBAK PARK,103.7524341787261,1.3672173562028183
TAMPINES BOULEVARD PARK,103.94064313618165,1.363756342117129
BOUNDARY ROAD PARK,103.87478098464692,1.3540401971512352
PARK AT SEMBAWANG ALLEY,103.81904332032455,1.44873423987904
JLN SENDUDOK PARK,103.8271629651823,1.4438998767847262
TOH CLOSE INTERIM PARK,103.96992207870058,1.3639140016919415
EAST COAST PARK AREA E1 CAR PARK,103.93021604239304,1.3073206700428106
PARLIAMENT PROMENADE,103.84999922976147,1.2885815772928457
CHANGI BEACH PK,104.00175372183348,1.3831593733995575
NW502D,103.8298393418044,1.443216249561224
JLG: LAKESIDE GARDEN,103.72694973622696,1.3336633524010115
CITY GREEN,103.85602245803376,1.3118468213994965
SILAT AVENUE PARK,103.82980087493317,1.2760758381495587
WOODLANDS HEALING GARDEN,103.79271594626627,1.425069285358305
MENG SUAN INTERIM PARK,103.81536660776065,1.4029897819398731
MARKET STREET PARK,103.85025686606404,1.2834506208363536
